%time,field.vehicle_info_batch0.actor_pos.x,field.vehicle_info_batch0.actor_pos.y,field.vehicle_info_batch0.actor_pos.z,field.vehicle_info_batch0.actor_vel.x,field.vehicle_info_batch0.actor_vel.y,field.vehicle_info_batch0.actor_vel.z,field.vehicle_info_batch0.actor_acc.x,field.vehicle_info_batch0.actor_acc.y,field.vehicle_info_batch0.actor_acc.z,field.vehicle_info_batch0.actor_psi,field.vehicle_info_batch0.actor_speed,field.vehicle_info_batch0.actor_width,field.vehicle_info_batch0.actor_length,field.vehicle_info_batch1.actor_pos.x,field.vehicle_info_batch1.actor_pos.y,field.vehicle_info_batch1.actor_pos.z,field.vehicle_info_batch1.actor_vel.x,field.vehicle_info_batch1.actor_vel.y,field.vehicle_info_batch1.actor_vel.z,field.vehicle_info_batch1.actor_acc.x,field.vehicle_info_batch1.actor_acc.y,field.vehicle_info_batch1.actor_acc.z,field.vehicle_info_batch1.actor_psi,field.vehicle_info_batch1.actor_speed,field.vehicle_info_batch1.actor_width,field.vehicle_info_batch1.actor_length,field.vehicle_info_batch2.actor_pos.x,field.vehicle_info_batch2.actor_pos.y,field.vehicle_info_batch2.actor_pos.z,field.vehicle_info_batch2.actor_vel.x,field.vehicle_info_batch2.actor_vel.y,field.vehicle_info_batch2.actor_vel.z,field.vehicle_info_batch2.actor_acc.x,field.vehicle_info_batch2.actor_acc.y,field.vehicle_info_batch2.actor_acc.z,field.vehicle_info_batch2.actor_psi,field.vehicle_info_batch2.actor_speed,field.vehicle_info_batch2.actor_width,field.vehicle_info_batch2.actor_length,field.vehicle_info_batch3.actor_pos.x,field.vehicle_info_batch3.actor_pos.y,field.vehicle_info_batch3.actor_pos.z,field.vehicle_info_batch3.actor_vel.x,field.vehicle_info_batch3.actor_vel.y,field.vehicle_info_batch3.actor_vel.z,field.vehicle_info_batch3.actor_acc.x,field.vehicle_info_batch3.actor_acc.y,field.vehicle_info_batch3.actor_acc.z,field.vehicle_info_batch3.actor_psi,field.vehicle_info_batch3.actor_speed,field.vehicle_info_batch3.actor_width,field.vehicle_info_batch3.actor_length,field.walker_info_batch0.actor_pos.x,field.walker_info_batch0.actor_pos.y,field.walker_info_batch0.actor_pos.z,field.walker_info_batch0.actor_vel.x,field.walker_info_batch0.actor_vel.y,field.walker_info_batch0.actor_vel.z,field.walker_info_batch0.actor_acc.x,field.walker_info_batch0.actor_acc.y,field.walker_info_batch0.actor_acc.z,field.walker_info_batch0.actor_psi,field.walker_info_batch0.actor_speed,field.walker_info_batch0.actor_width,field.walker_info_batch0.actor_length,field.walker_info_batch1.actor_pos.x,field.walker_info_batch1.actor_pos.y,field.walker_info_batch1.actor_pos.z,field.walker_info_batch1.actor_vel.x,field.walker_info_batch1.actor_vel.y,field.walker_info_batch1.actor_vel.z,field.walker_info_batch1.actor_acc.x,field.walker_info_batch1.actor_acc.y,field.walker_info_batch1.actor_acc.z,field.walker_info_batch1.actor_psi,field.walker_info_batch1.actor_speed,field.walker_info_batch1.actor_width,field.walker_info_batch1.actor_length,field.walker_info_batch2.actor_pos.x,field.walker_info_batch2.actor_pos.y,field.walker_info_batch2.actor_pos.z,field.walker_info_batch2.actor_vel.x,field.walker_info_batch2.actor_vel.y,field.walker_info_batch2.actor_vel.z,field.walker_info_batch2.actor_acc.x,field.walker_info_batch2.actor_acc.y,field.walker_info_batch2.actor_acc.z,field.walker_info_batch2.actor_psi,field.walker_info_batch2.actor_speed,field.walker_info_batch2.actor_width,field.walker_info_batch2.actor_length,field.walker_info_batch3.actor_pos.x,field.walker_info_batch3.actor_pos.y,field.walker_info_batch3.actor_pos.z,field.walker_info_batch3.actor_vel.x,field.walker_info_batch3.actor_vel.y,field.walker_info_batch3.actor_vel.z,field.walker_info_batch3.actor_acc.x,field.walker_info_batch3.actor_acc.y,field.walker_info_batch3.actor_acc.z,field.walker_info_batch3.actor_psi,field.walker_info_batch3.actor_speed,field.walker_info_batch3.actor_width,field.walker_info_batch3.actor_length
1.71774116339893E+018,117.93482208252,-251.374160766602,13.5999994277954,0.001068115234375,-0.001220703125,0,0.01068115234375,-0.01220703125,0,0.187098651328808,0.00492545351298,0,0,143.955520629883,-249.411514282227,13.8824424743652,-4.05568607675377E-06,-8.97468999028206E-06,-1.78731568212243E-06,0.000113663736556,-8.44644528115168E-05,0.000563645386137,0.696199111373689,1.00094029453511E-05,3.07,6.037,215.466064453125,-236.484024047852,13.9642963409424,0,0,0,-0.000243226983002,0.001481393352151,-0.000612263102084,0.190295576480367,0,3.07,6.037,218.136688232422,-228.331008911133,13.9989643096924,-8.0568715929985E-06,2.52793724939693E-05,-2.05595133593306E-05,-4.84865267935675E-05,4.25819052907173E-05,-0.00019559483917,0.190168244090747,3.35656586875248E-05,3.07,6.037,186.251983642578,-232.778991699219,14.9308776855469,0,0,0,0,0,0,0.19006737686446,0,3.5,3.5,0,0,0,0,0,0,0,0,0,0,0,0,0,0,0,0,0,0,0,0,0,0,0,0,0,0,0,0,0,0,0,0,0,0,0,0,0,0,0
1.71774116349885E+018,117.934860229492,-251.370986938477,13.5999994277954,0.000381469726563,0.03173828125,0,0.003814697265625,0.3173828125,0,0.18712914452329,0.004766181711784,0,0,143.955520629883,-249.411514282227,13.8824424743652,-3.6920048387401E-06,-9.71302324614953E-06,-4.46077592641814E-06,7.72857856645715E-06,-1.60680883709574E-05,-4.21170188928954E-05,0.696199111373689,1.13080609378988E-05,3.07,6.037,215.466064453125,-236.484024047852,13.9642963409424,5.72700992051978E-06,-2.76327118626796E-05,5.26512712895055E-06,2.84346933767665E-05,4.43589669885114E-05,0.000168114143889,0.190295576480367,2.87069150414951E-05,3.07,6.037,218.136688232422,-228.331008911133,13.9989643096924,-7.58154283175827E-06,2.51321853284026E-05,-2.23137249122374E-05,4.46755402663257E-05,-5.12022779730614E-05,9.53320559347048E-05,0.190168244090747,3.44529947979847E-05,3.07,6.037,186.251983642578,-232.778991699219,14.9308776855469,0,0,0,0,0,0,0.19006737686446,0,3.5,3.5,0,0,0,0,0,0,0,0,0,0,0,0,0,0,0,0,0,0,0,0,0,0,0,0,0,0,0,0,0,0,0,0,0,0,0,0,0,0,0
1.71774116359891E+018,117.934989929199,-251.371231079102,13.5999994277954,0.001296997070313,-0.00244140625,0,0.012969970703125,-0.0244140625,0,0.18715113224704,0.002678705371287,0,0,143.955520629883,-249.411514282227,13.8824424743652,-4.65940684080124E-06,-7.36851234250935E-06,-1.31134420371382E-05,2.6719590096036E-06,-4.88944351673126E-06,-4.19468960899394E-05,0.696199111373689,1.57469809268698E-05,3.07,6.037,215.466064453125,-236.484024047852,13.9642963409424,5.71345890421071E-06,-2.88162009383086E-05,8.79816070664674E-06,4.8522837460041E-05,-5.51566699868999E-05,0.000172850355739,0.190295576480367,3.06663444346904E-05,3.07,6.037,218.136688232422,-228.331008911133,13.9989643096924,-7.97981374489609E-06,2.55443519563414E-05,-2.50192260864424E-05,-3.87708496418782E-06,4.08845153287984E-06,-3.04905370285269E-05,0.190168244090747,3.66354066203337E-05,3.07,6.037,186.251983642578,-232.778991699219,14.9308776855469,0,0,0,0,0,0,0.19006737686446,0,3.5,3.5,0,0,0,0,0,0,0,0,0,0,0,0,0,0,0,0,0,0,0,0,0,0,0,0,0,0,0,0,0,0,0,0,0,0,0,0,0,0,0
1.71774116369889E+018,117.935173034668,-251.371475219727,13.5999994277954,0.0018310546875,-0.00244140625,0,0.018310546875,-0.0244140625,0,0.187203063888296,0.001564381989917,0,0,143.955520629883,-249.411514282227,13.8824424743652,-3.53853215528943E-06,-1.01336090665427E-05,-8.21651428850601E-06,9.22614162846003E-06,-8.0058365711011E-05,-0.000130353626446,0.696199111373689,1.35174831082105E-05,3.07,6.037,215.466064453125,-236.484024047852,13.9642963409424,5.71655118619674E-06,-2.9838867703802E-05,1.15880156954518E-05,-1.41914824780542E-05,5.40017026651185E-05,0.000477822381072,0.190295576480367,3.25164433951107E-05,3.07,6.037,218.136688232422,-228.331008911133,13.9989643096924,-8.9357235992793E-06,2.48263768298784E-05,-1.2779369171767E-05,-3.27974703395739E-05,-5.67063580092508E-05,0.000709027226549,0.190168244090747,2.93173740155927E-05,3.07,6.037,186.251983642578,-232.778991699219,14.9308776855469,0,0,0,0,0,0,0.19006737686446,0,3.5,3.5,0,0,0,0,0,0,0,0,0,0,0,0,0,0,0,0,0,0,0,0,0,0,0,0,0,0,0,0,0,0,0,0,0,0,0,0,0,0,0
1.71774116379885E+018,117.935279846191,-251.371475219727,13.5999994277954,0.001068115234375,0,0,0.01068115234375,0,0,0.187235055110891,0.002905776394923,0,0,143.955520629883,-249.411514282227,13.8824424743652,-3.48366779689968E-06,-1.02296098702936E-05,-9.0844414444291E-06,9.2168420451344E-06,-8.20653440314345E-05,-0.000136077054776,0.696199111373689,1.41176462547702E-05,3.07,6.037,215.466064453125,-236.484024047852,13.9642963409424,4.36922528024297E-06,-2.7605556169874E-05,2.18770692299586E-05,-6.31138609605841E-05,0.000106390507426,0.000375875650207,0.190295576480367,3.54931404512194E-05,3.07,6.037,218.136688232422,-228.331008911133,13.9989643096924,-8.15598286862951E-06,2.84756715700496E-05,-1.91513099707663E-05,1.23689005704364E-05,0.000135425492772,0.000540376640856,0.190168244090747,3.52726041215428E-05,3.07,6.037,186.251983642578,-232.778991699219,14.9308776855469,0,0,0,0,0,0,0.19006737686446,0,3.5,3.5,0,0,0,0,0,0,0,0,0,0,0,0,0,0,0,0,0,0,0,0,0,0,0,0,0,0,0,0,0,0,0,0,0,0,0,0,0,0,0
1.71774116389881E+018,117.935493469238,-251.371826171875,13.5999994277954,0.00213623046875,-0.003509521484375,0,0.0213623046875,-0.03509521484375,0,0.187178579451024,0.00416289446203,0,0,143.955520629883,-249.411514282227,13.8824424743652,-4.25702864959021E-06,-6.93613628754974E-06,-1.72898107848596E-05,-3.7734855141025E-05,0.00015729945153,-0.001098956679925,0.696199111373689,1.91094174819418E-05,3.07,6.037,215.466064453125,-236.484024047852,13.9642963409424,5.85360430704895E-06,-2.72833185590571E-05,1.5593981515849E-05,7.71540071582422E-05,2.87834154732991E-05,-0.000579937652219,0.190295576480367,3.1965863268417E-05,3.07,6.037,218.136688232422,-228.331008911133,13.9989643096924,-6.26863902652985E-06,2.1263769667712E-05,-2.64429199887672E-05,2.97054612019565E-05,6.73830072628334E-05,-0.000401233235607,0.190168244090747,3.45061118247013E-05,3.07,6.037,186.251983642578,-232.778991699219,14.9308776855469,0,0,0,0,0,0,0.19006737686446,0,3.5,3.5,0,0,0,0,0,0,0,0,0,0,0,0,0,0,0,0,0,0,0,0,0,0,0,0,0,0,0,0,0,0,0,0,0,0,0,0,0,0,0
1.71774116399891E+018,117.935661315918,-251.372085571289,13.5999994277954,0.001678466796875,-0.002593994140625,0,0.01678466796875,-0.02593994140625,0,0.187154095013752,0.001863991372292,0,0,143.955520629883,-249.411514282227,13.8824434280396,-3.37145274897921E-06,-1.00698507594643E-05,1.95160328075872E-06,2.0354150365165E-06,-6.13778829574585E-05,-0.000144949051901,0.696199111373689,1.07970988382043E-05,3.07,6.037,215.466064453125,-236.484024047852,13.9642963409424,5.18758770340355E-06,-2.6892796086031E-05,2.75178217634675E-06,-2.36607083934359E-05,-7.18850933481008E-05,-8.93964825081639E-05,0.190295576480367,2.75264573211194E-05,3.07,6.037,218.136688232422,-228.331008911133,13.9989643096924,-8.48729177960195E-06,2.52880890911911E-05,-1.0833568921953E-05,-7.40103569114581E-05,-5.64941728953272E-06,0.000547564995941,0.190168244090747,2.87904113764083E-05,3.07,6.037,186.251983642578,-232.778991699219,14.9308776855469,0,0,0,0,0,0,0.19006737686446,0,3.5,3.5,0,0,0,0,0,0,0,0,0,0,0,0,0,0,0,0,0,0,0,0,0,0,0,0,0,0,0,0,0,0,0,0,0,0,0,0,0,0,0
1.71774116409884E+018,117.935836791992,-251.372207641602,13.5999994277954,0.001754760742188,-0.001220703125,0,0.017547607421875,-0.01220703125,0,0.18712694741539,0.002057381225865,0,0,143.955520629883,-249.411514282227,13.8824424743652,-3.20611525239656E-06,-9.14325937628746E-06,4.69613354425746E-07,4.33684363088105E-05,6.63688260829076E-05,0.00093993084738,0.696199111373689,9.70045894462594E-06,3.07,6.037,215.466064453125,-236.484024047852,13.9642963409424,5.6446342568961E-06,-2.89555264316732E-05,7.08969537299708E-06,5.4095835366752E-06,-3.49618858308531E-05,7.72804487496614E-05,0.190295576480367,3.03405370307011E-05,3.07,6.037,218.136688232422,-228.331008911133,13.9989643096924,-7.1525200837641E-06,2.40739063883666E-05,-2.34322524192976E-05,6.18351332377642E-05,-9.85636725090444E-05,-0.000393492780859,0.190168244090747,3.43479543173413E-05,3.07,6.037,186.251983642578,-232.778991699219,14.9308776855469,0,0,0,0,0,0,0.19006737686446,0,3.5,3.5,0,0,0,0,0,0,0,0,0,0,0,0,0,0,0,0,0,0,0,0,0,0,0,0,0,0,0,0,0,0,0,0,0,0,0,0,0,0,0
1.71774116419887E+018,117.935997009277,-251.372299194336,13.5999994277954,0.001602172851563,-0.00091552734375,0,0.016021728515625,-0.0091552734375,0,0.187104526927963,0.003338934003674,0,0,143.955520629883,-249.411514282227,13.8824424743652,-3.17540002470196E-06,-9.24270534596872E-06,-2.39961605075223E-06,4.87263278046157E-05,4.78653419122566E-05,0.000960335193668,0.696199111373689,1.00632462267552E-05,3.07,6.037,215.466064453125,-236.484024047852,13.9642963409424,5.02170996696805E-06,-2.95206154987682E-05,8.39374024508288E-06,-5.01638169225771E-05,3.66102540283464E-05,-9.47540684137493E-05,0.190295576480367,3.10988614859191E-05,3.07,6.037,218.136688232422,-228.331008911133,13.9989643096924,-7.96453969087452E-06,2.38554912357358E-05,-1.34212268676492E-05,2.97623046208173E-05,-0.000169914259459,0.000403030251618,0.190168244090747,2.85069760798773E-05,3.07,6.037,186.251983642578,-232.778991699219,14.9308776855469,0,0,0,0,0,0,0.19006737686446,0,3.5,3.5,0,0,0,0,0,0,0,0,0,0,0,0,0,0,0,0,0,0,0,0,0,0,0,0,0,0,0,0,0,0,0,0,0,0,0,0,0,0,0
1.71774116429888E+018,117.936256408691,-251.37255859375,13.5999994277954,0.002593994140625,-0.002593994140625,0,0.02593994140625,-0.02593994140625,0,0.18708292203362,0.00270667651963,0,0,143.955520629883,-249.411514282227,13.8824424743652,-5.50665890841628E-06,-8.36279195937095E-06,4.02840676372307E-08,-0.000112087000161,7.69989565014839E-05,0.000318911508657,0.696199111373689,1.00130517074199E-05,3.07,6.037,215.466064453125,-236.484024047852,13.9642963409424,5.48344087292207E-06,-2.77931230812101E-05,1.301442125623E-06,2.02991031983402E-05,0.000116419047117,-0.000509776757099,0.190295576480367,2.83587652414641E-05,3.07,6.037,218.136688232422,-228.331008911133,13.9989643096924,-7.95364394434728E-06,2.70985437964555E-05,-2.33016417041654E-05,1.18548086902592E-05,0.000142527729622,-0.000358065415639,0.190168244090747,3.66136318055334E-05,3.07,6.037,186.251983642578,-232.778991699219,14.9308776855469,0,0,0,0,0,0,0.19006737686446,0,3.5,3.5,0,0,0,0,0,0,0,0,0,0,0,0,0,0,0,0,0,0,0,0,0,0,0,0,0,0,0,0,0,0,0,0,0,0,0,0,0,0,0
1.71774116439895E+018,117.936363220215,-251.372665405273,13.5999994277954,0.001068115234375,-0.001068115234375,0,0.01068115234375,-0.01068115234375,0,0.187113565030913,0.00174761132571,0,0,143.955520629883,-249.411514282227,13.8824424743652,-4.57845635537524E-06,-7.99130611994769E-06,3.10925685198526E-07,-8.53790425026091E-06,-4.39016039308626E-05,0.001230449066497,0.696199111373689,9.21519999145464E-06,3.07,6.037,215.466064453125,-236.484024047852,13.9642963409424,5.56667328055482E-06,-2.84384550468531E-05,3.35265008288843E-06,1.4110810298007E-07,-1.63819095178042E-05,3.29545182466973E-05,0.190295576480367,2.91714559020049E-05,3.07,6.037,218.136688232422,-228.331008911133,13.9989643096924,-6.8797357926087E-06,1.99300411622971E-05,-1.84660493687261E-05,7.79283946030773E-05,-0.000268587871687,1.39301846502349E-05,0.190168244090747,2.80273488684747E-05,3.07,6.037,186.251983642578,-232.778991699219,14.9308776855469,0,0,0,0,0,0,0.19006737686446,0,3.5,3.5,0,0,0,0,0,0,0,0,0,0,0,0,0,0,0,0,0,0,0,0,0,0,0,0,0,0,0,0,0,0,0,0,0,0,0,0,0,0,0
1.71774116449881E+018,117.936225891113,-251.373046875,13.5999994277954,-0.001373291015625,-0.003814697265625,0,-0.01373291015625,-0.03814697265625,0,0.187203230335864,0.005344002768922,0,0,143.955520629883,-249.411514282227,13.8824424743652,-2.68438816419803E-06,-1.06478109955788E-05,-9.75257717072964E-06,0.000109992921352,-7.91801066952757E-05,-0.000327011424815,0.696199111373689,1.46865441913573E-05,3.07,6.037,215.466064453125,-236.484024047852,13.9642963409424,5.78502158532501E-06,-2.72564957413124E-05,4.09656058764085E-06,5.2608062105719E-05,-7.75064982008189E-05,0.000172163825482,0.190295576480367,2.81631824104995E-05,3.07,6.037,218.136688232422,-228.331008911133,13.9989643096924,-8.63140394358197E-06,2.52838435699232E-05,-9.9275412139832E-06,-7.3565162892919E-05,-4.03442754759453E-06,0.000541378394701,0.190168244090747,2.85014026718154E-05,3.07,6.037,186.251983642578,-232.778991699219,14.9308776855469,0,0,0,0,0,0,0.19006737686446,0,3.5,3.5,0,0,0,0,0,0,0,0,0,0,0,0,0,0,0,0,0,0,0,0,0,0,0,0,0,0,0,0,0,0,0,0,0,0,0,0,0,0,0
1.71774116459896E+018,117.932952880859,-251.368927001953,13.5999994277954,-0.032730102539063,0.04119873046875,0,-0.327301025390625,0.4119873046875,0,0.187293727878657,0.005448896753312,0,0,143.955520629883,-249.411514282227,13.8824424743652,-5.39697703061393E-06,-7.45659690437606E-06,-2.16725834434328E-06,-7.40578325348906E-05,2.94586698146304E-05,0.00074334454257,0.696199111373689,9.45649021542615E-06,3.07,6.037,215.466064453125,-236.484024047852,13.964298248291,5.69587564314134E-06,-2.80974418274127E-05,6.07722813583678E-06,8.9919467427535E-07,-1.40070369525347E-05,2.99588682537433E-05,0.190297740298752,2.93060051593863E-05,3.07,6.037,218.136688232422,-228.331008911133,13.9989643096924,-8.49083062348655E-06,2.64101090579061E-05,-1.61680472956505E-05,-6.12037401879206E-05,0.000124014884932,0.000230653400649,0.190168244090747,3.21090924580814E-05,3.07,6.037,186.251983642578,-232.778991699219,14.9308776855469,0,0,0,0,0,0,0.19006737686446,0,3.5,3.5,0,0,0,0,0,0,0,0,0,0,0,0,0,0,0,0,0,0,0,0,0,0,0,0,0,0,0,0,0,0,0,0,0,0,0,0,0,0,0
1.71774116469894E+018,117.932373046875,-251.369064331055,13.5999994277954,-0.00579833984375,-0.001373291015625,0,-0.0579833984375,-0.01373291015625,0,0.187247705126069,0.003205180909464,0,0,143.955520629883,-249.411514282227,13.8824424743652,-3.11294570565224E-06,-1.05237213574583E-05,-1.26899813039927E-05,-2.67336872639135E-06,-9.28548615775071E-07,-2.46444869844709E-05,0.696199111373689,1.67772097701449E-05,3.07,6.037,215.466064453125,-236.484024047852,13.964298248291,4.74451098853024E-06,-2.83455465250881E-05,1.55598388573708E-06,-4.86313401779626E-05,3.29464455717243E-05,-9.69750544754788E-05,0.190297740298752,2.87819644600381E-05,3.07,6.037,218.136688232422,-228.331008911133,13.9989643096924,-8.04968203738099E-06,2.39321580011165E-05,-1.24282332762959E-05,4.28668936365284E-05,-3.01245563605335E-05,9.38454395509325E-05,0.190168244090747,2.81426109283301E-05,3.07,6.037,186.251983642578,-232.778991699219,14.9308776855469,0,0,0,0,0,0,0.19006737686446,0,3.5,3.5,0,0,0,0,0,0,0,0,0,0,0,0,0,0,0,0,0,0,0,0,0,0,0,0,0,0,0,0,0,0,0,0,0,0,0,0,0,0,0
1.71774116479904E+018,117.93221282959,-251.369171142578,13.5999994277954,-0.001602172851563,-0.001068115234375,0,-0.016021728515625,-0.01068115234375,0,0.187299986307218,0.011343189505363,0,0,143.955520629883,-249.411514282227,13.8824424743652,-3.28752207678917E-06,-1.02921949292067E-05,-1.35191412482527E-05,-1.51899257616606E-06,5.77392711420544E-07,6.08906702836976E-08,0.696199111373689,1.73061913186112E-05,3.07,6.037,215.466064453125,-236.484024047852,13.964298248291,6.31226203040569E-06,-2.88528572127689E-05,-8.93898595677456E-06,7.91787242633291E-05,-2.02999217435718E-07,-0.000604440050665,0.190297740298752,3.08583455683603E-05,3.07,6.037,218.136688232422,-228.331008911133,13.9989643096924,-8.20964578451822E-06,2.86841004708549E-05,-3.09372626361437E-05,-1.15325747174211E-05,8.24089511297643E-05,-0.000490027305204,0.190168244090747,4.29801131123115E-05,3.07,6.037,186.251983642578,-232.778991699219,14.9308776855469,0,0,0,0,0,0,0.19006737686446,0,3.5,3.5,0,0,0,0,0,0,0,0,0,0,0,0,0,0,0,0,0,0,0,0,0,0,0,0,0,0,0,0,0,0,0,0,0,0,0,0,0,0,0
1.71774116489886E+018,117.934417724609,-251.368545532227,13.5999994277954,0.022048950195313,0.006256103515625,0,0.220489501953125,0.06256103515625,0,0.187121587803697,0.04473267354776,0,0,143.955520629883,-249.411514282227,13.8824424743652,-4.40771691501141E-06,-7.11329266778193E-06,-2.42980568145867E-05,-4.49367798864841E-05,7.43521450203843E-05,-0.000667427026201,0.696199111373689,2.56986860742973E-05,3.07,6.037,215.466064453125,-236.484024047852,13.9642963409424,5.89858746025129E-06,-2.77018170891097E-05,3.15245779347606E-06,7.8264158219099E-05,1.78906702785753E-05,-0.000590818177443,0.190297740298752,2.84977541958024E-05,3.07,6.037,218.136688232422,-228.331008911133,13.9989643096924,-8.4876264736522E-06,2.53782036452321E-05,-1.78725040314021E-05,-1.88872036233079E-05,-0.000123698278912,0.000297808204778,0.190168244090747,3.21794876243796E-05,3.07,6.037,186.251983642578,-232.778991699219,14.9308776855469,0,0,0,0,0,0,0.19006737686446,0,3.5,3.5,0,0,0,0,0,0,0,0,0,0,0,0,0,0,0,0,0,0,0,0,0,0,0,0,0,0,0,0,0,0,0,0,0,0,0,0,0,0,0
1.71774116499893E+018,117.940338134766,-251.367630004883,13.5999994277954,0.0592041015625,0.0091552734375,0,0.592041015625,0.091552734375,0,0.187055141934499,0.186538666633426,0,0,143.955520629883,-249.411514282227,13.8824424743652,-4.95586527904379E-06,-7.70298720453866E-06,1.00017054194268E-07,-1.0238022696285E-05,7.70827682572417E-05,0.000137886614539,0.696199111373689,9.16005545553343E-06,3.07,6.037,215.466064453125,-236.484024047852,13.9642963409424,4.80758035337203E-06,-2.57812807831215E-05,4.42818560486558E-07,0.000240379013121,-0.001289064064622,2.21409281948581E-05,0.190297740298752,2.62294368210564E-05,3.07,6.037,218.136688232422,-228.331008911133,13.9989643096924,-7.93509207142051E-06,2.59432199527509E-05,-5.28722284798278E-06,3.70880588889122E-05,5.08744960825425E-05,6.78712895023636E-05,0.190168244090747,2.76400266487384E-05,3.07,6.037,186.251983642578,-232.778991699219,14.9308776855469,0,0,0,0,0,0,0.19006737686446,0,3.5,3.5,0,0,0,0,0,0,0,0,0,0,0,0,0,0,0,0,0,0,0,0,0,0,0,0,0,0,0,0,0,0,0,0,0,0,0,0,0,0,0
1.71774116509891E+018,117.963638305664,-251.363632202148,13.5999994277954,0.233001708984375,0.03997802734375,0,2.33001708984375,0.3997802734375,0,0.186916640913058,0.276678595697067,0,0,143.955520629883,-249.411514282227,13.8824424743652,-5.20893354405416E-06,-7.78915364207933E-06,-3.85380474199337E-07,-0.000112678841106,0.000123343401356,0.000463980541099,0.696199111373689,9.37829522014446E-06,3.07,6.037,215.466064453125,-236.484024047852,13.9642963409424,6.53083407087252E-06,-3.00785522995284E-05,-4.13622910855338E-06,9.55220239120536E-05,-7.89352270658128E-05,-0.000162924741744,0.190297740298752,3.10560701527926E-05,3.07,6.037,218.136688232422,-228.331008911133,13.9989643096924,-8.41282326291548E-06,2.58712098002434E-05,-1.38424475153442E-05,5.34555510967039E-07,1.18930074677337E-05,-7.72176426835358E-05,0.190168244090747,3.0523899570604E-05,3.07,6.037,186.251983642578,-232.778991699219,14.9308776855469,0,0,0,0,0,0,0.19006737686446,0,3.5,3.5,0,0,0,0,0,0,0,0,0,0,0,0,0,0,0,0,0,0,0,0,0,0,0,0,0,0,0,0,0,0,0,0,0,0,0,0,0,0,0
1.71774116519901E+018,117.990028381348,-251.35920715332,13.5999994277954,0.263900756835937,0.04425048828125,0,2.63900756835937,0.4425048828125,0,0.186961015834722,0.450434343236112,0,0,143.955520629883,-249.411514282227,13.8824424743652,-3.18620345751697E-06,-9.0717148850672E-06,-7.90898957347963E-06,9.92793047771556E-07,5.35901563125663E-05,0.000138333867653,0.696199111373689,1.244990038121E-05,3.07,6.037,215.466064453125,-236.484024047852,13.9642963409424,5.74113801121712E-06,-2.95184545393568E-05,4.49639537691837E-06,6.26828295935411E-06,-2.66786628344562E-05,5.39435641258024E-05,0.190297740298752,3.04058776462954E-05,3.07,6.037,218.136688232422,-228.331008911133,13.9989643096924,-7.43655482438044E-06,2.58483723882819E-05,-1.75746372406138E-05,4.82015129819047E-05,-4.37125891039614E-05,6.2569510191679E-05,0.190168244090747,3.21295592394057E-05,3.07,6.037,186.251983642578,-232.778991699219,14.9308776855469,0,0,0,0,0,0,0.19006737686446,0,3.5,3.5,0,0,0,0,0,0,0,0,0,0,0,0,0,0,0,0,0,0,0,0,0,0,0,0,0,0,0,0,0,0,0,0,0,0,0,0,0,0,0
1.71774116529896E+018,118.046295166016,-251.350021362305,13.5999994277954,0.562667846679688,0.09185791015625,0,5.62667846679688,0.9185791015625,0,0.186696930123127,0.56461497359797,0,0,143.955520629883,-249.411514282227,13.8824424743652,-3.28339638144826E-06,-8.95332505024271E-06,-8.60483578435378E-06,5.18886054123868E-06,-1.18995103548514E-05,7.56990630179644E-06,0.696199111373689,1.2844684508726E-05,3.07,6.037,215.466064453125,-236.484024047852,13.9642963409424,5.04315812577261E-06,-2.95110785373254E-05,4.03551894123666E-06,-4.89172634843271E-05,3.53381437889766E-05,-9.94104993878864E-05,0.190297740298752,3.020964437796E-05,3.07,6.037,218.136688232422,-228.331008911133,13.9989643096924,-8.13500901131192E-06,2.42437417909969E-05,-1.48977396747796E-05,-5.34205355506856E-06,1.60988747666124E-05,-3.75236595573369E-05,0.190168244090747,2.95952704846595E-05,3.07,6.037,186.251983642578,-232.778991699219,14.9308776855469,0,0,0,0,0,0,0.19006737686446,0,3.5,3.5,0,0,0,0,0,0,0,0,0,0,0,0,0,0,0,0,0,0,0,0,0,0,0,0,0,0,0,0,0,0,0,0,0,0,0,0,0,0,0
1.71774116539889E+018,118.09553527832,-251.34196472168,13.5999994277954,0.492401123046875,0.08056640625,0,4.92401123046875,0.8056640625,0,0.186579601232352,0.74768207960101,0,0,143.955520629883,-249.411514282227,13.8824424743652,-3.4778936424118E-06,-9.94132824416738E-06,-1.25447331811301E-05,0.000159995630383,-0.000192455016077,-2.20751189772272E-05,0.696199111373689,1.63797460918036E-05,3.07,6.037,215.466064453125,-236.484024047852,13.9642963409424,6.0533079704328E-06,-2.61468430835521E-05,2.02969727070013E-06,1.50037067214726E-06,-1.72476575244218E-06,2.00521008082433E-05,0.190297740298752,2.69150443364206E-05,3.07,6.037,218.136688232422,-228.331008911133,13.9989643096924,-8.15149360278156E-06,2.73891164397355E-05,-2.3921256797621E-05,1.55316683958517E-05,0.000122612342238,-0.000357495620847,0.190168244090747,3.72671044499477E-05,3.07,6.037,186.251983642578,-232.778991699219,14.9308776855469,0,0,0,0,0,0,0.19006737686446,0,3.5,3.5,0,0,0,0,0,0,0,0,0,0,0,0,0,0,0,0,0,0,0,0,0,0,0,0,0,0,0,0,0,0,0,0,0,0,0,0,0,0,0
1.71774116549896E+018,118.184936523438,-251.322799682617,13.5999994277954,0.894012451171875,0.191650390625,0,8.94012451171875,1.91650390625,0,0.186446992454823,0.863895584724653,0,0,143.955520629883,-249.411514282227,13.8824424743652,-3.93711934520979E-06,-9.91405886452412E-06,-4.88260729980539E-06,1.15083594209864E-05,-2.23023562284652E-05,-2.79241940006614E-05,0.696199111373689,1.17315525806173E-05,3.07,6.037,215.466064453125,-236.484024047852,13.9642963409424,0,0,0,-0.000256022438407,0.00151614844799,-0.000383514678106,0.190297740298752,0,3.07,6.037,218.136688232422,-228.331008911133,13.9989643096924,-7.43525106372545E-06,2.65465296251932E-05,-2.90231182589196E-05,6.22989318799227E-05,0.000114561953524,-0.000292274868116,0.190168244090747,4.00292716270621E-05,3.07,6.037,186.251983642578,-232.778991699219,14.9308776855469,0,0,0,0,0,0,0.19006737686446,0,3.5,3.5,0,0,0,0,0,0,0,0,0,0,0,0,0,0,0,0,0,0,0,0,0,0,0,0,0,0,0,0,0,0,0,0,0,0,0,0,0,0,0
1.7177411655989E+018,118.258163452148,-251.31086730957,13.5999994277954,0.732269287109375,0.11932373046875,0,7.32269287109375,1.1932373046875,0,0.186378416056753,1.05397093478953,0,0,143.955520629883,-249.411514282227,13.8824424743652,-4.89642843604088E-06,-6.08278423896991E-06,-9.65723393164808E-06,-4.99165689689107E-05,0.000118849813589,-0.000331040704623,0.696199111373689,1.24192368017405E-05,3.07,6.037,215.466064453125,-236.484024047852,13.9642963409424,4.59148532172549E-06,-2.88696210191119E-05,7.9587844084017E-06,-4.49879953521304E-05,2.68370058620349E-05,-0.000112144291052,0.190297740298752,3.02965180261064E-05,3.07,6.037,218.136688232422,-228.331008911133,13.9989643096924,-8.13892074802425E-06,2.50311568379402E-05,-2.98864106298424E-05,-3.30740476783831E-05,-5.44320755579975E-05,-0.000213084509596,0.190168244090747,3.98245952135579E-05,3.07,6.037,186.251983642578,-232.778991699219,14.9308776855469,0,0,0,0,0,0,0.19006737686446,0,3.5,3.5,0,0,0,0,0,0,0,0,0,0,0,0,0,0,0,0,0,0,0,0,0,0,0,0,0,0,0,0,0,0,0,0,0,0,0,0,0,0,0
1.7177411656989E+018,118.386177062988,-251.289855957031,13.5999994277954,1.28013610839844,0.210113525390625,0,12.8013610839844,2.10113525390625,0,0.186122369762699,1.17251606288674,0,0,143.955520629883,-249.411514282227,13.8824424743652,-3.69937151845079E-06,-9.92093191598542E-06,-8.29149394121487E-06,5.59855143364985E-05,-0.000191733211977,0.000154193679919,0.696199111373689,1.34483869475244E-05,3.07,6.037,215.466064453125,-236.484024047852,13.9642963409424,5.63067351322388E-06,-3.02631033264333E-05,1.26385057228617E-05,1.15110196929891E-06,-3.34721335093491E-06,2.28972112381598E-05,0.190297740298752,3.32759933595634E-05,3.07,6.037,218.136688232422,-228.331008911133,13.9989643096924,-7.90635112934979E-06,2.71996850642608E-05,-1.42280023283092E-05,2.62390585703542E-05,6.76065610605292E-05,8.41985602164641E-05,0.190168244090747,3.16980962524553E-05,3.07,6.037,186.251983642578,-232.778991699219,14.9308776855469,0,0,0,0,0,0,0.19006737686446,0,3.5,3.5,0,0,0,0,0,0,0,0,0,0,0,0,0,0,0,0,0,0,0,0,0,0,0,0,0,0,0,0,0,0,0,0,0,0,0,0,0,0,0
1.71774116579896E+018,118.48371887207,-251.273666381836,13.5999994277954,0.975418090820312,0.161895751953125,0,9.75418090820313,1.61895751953125,0,0.185942140335928,1.36163497609649,0,0,143.955520629883,-249.411514282227,13.8824424743652,-3.67149709745718E-06,-9.88669671642128E-06,-9.2259761004243E-06,4.7914214519551E-05,-0.000173929147422,0.000154238106916,0.696199111373689,1.40123266413802E-05,3.07,6.037,215.466064453125,-236.484024047852,13.9642963409424,4.70017084808205E-06,-2.98439335892908E-05,1.34067677208805E-05,-9.55117229750613E-06,-0.000148074745084,0.000351990165655,0.190297740298752,3.30528879041575E-05,3.07,6.037,218.136688232422,-228.331008911133,13.9989643096924,-8.89662624103949E-06,2.36249343288364E-05,-1.37098713821615E-05,-9.12677933229134E-07,3.63033905159682E-06,-2.9030616133241E-05,0.190168244090747,2.87271309710872E-05,3.07,6.037,186.251983642578,-232.778991699219,14.9308776855469,0,0,0,0,0,0,0.19006737686446,0,3.5,3.5,0,0,0,0,0,0,0,0,0,0,0,0,0,0,0,0,0,0,0,0,0,0,0,0,0,0,0,0,0,0,0,0,0,0,0,0,0,0,0
1.7177411658989E+018,118.648345947266,-251.246826171875,13.5999994277954,1.64627075195313,0.268402099609375,0,16.4627075195313,2.68402099609375,0,0.185666020465157,1.483455223496,0,0,143.955520629883,-249.411514282227,13.8824424743652,-3.61283309757709E-06,-9.92760033113882E-06,-9.91266915661981E-06,4.96059547003824E-05,-0.000178122878424,0.000165678822668,0.696199111373689,1.44869189662391E-05,3.07,6.037,215.466064453125,-236.484024047852,13.9642963409424,5.1040201469732E-06,-2.73291752819205E-05,1.04793052742025E-05,-1.79511516762432E-06,1.57599060912617E-05,4.45149453298654E-05,0.190297740298752,2.97111205153991E-05,3.07,6.037,218.136688232422,-228.331008911133,13.9989643096924,-8.90180490387138E-06,2.37063304666663E-05,-1.61031966854352E-05,1.45937519846484E-06,-1.12504494609311E-06,-3.24063876178116E-05,0.190168244090747,3.00090849282545E-05,3.07,6.037,186.251983642578,-232.778991699219,14.9308776855469,0,0,0,0,0,0,0.19006737686446,0,3.5,3.5,0,0,0,0,0,0,0,0,0,0,0,0,0,0,0,0,0,0,0,0,0,0,0,0,0,0,0,0,0,0,0,0,0,0,0,0,0,0,0
1.71774116599902E+018,118.77059173584,-251.227951049805,13.5999994277954,1.22245788574219,0.188751220703125,0,12.2245788574219,1.88751220703125,0,0.185550272826279,1.67053092481491,0,0,143.955520629883,-249.411514282227,13.8824424743652,-4.15011299992329E-06,-9.52854770730482E-06,-4.13382258557249E-06,-5.22750269738026E-06,1.34156834974419E-05,-2.40777808357961E-05,0.696199111373689,1.11850412825124E-05,3.07,6.037,215.466064453125,-236.484024047852,13.9642963409424,4.68216830995516E-06,-2.9082222681609E-05,2.96720409096451E-05,-2.85105670627672E-05,-6.52316884952597E-05,0.0008403150714,0.190297740298752,4.18106252994271E-05,3.07,6.037,218.136688232422,-228.331008911133,13.9989643096924,-7.18142837285996E-06,2.5671683033579E-05,-2.58405543718254E-05,-1.59740466187941E-05,0.000299599021673,-0.000380232173484,0.190168244090747,3.71260349821299E-05,3.07,6.037,186.251983642578,-232.778991699219,14.9308776855469,0,0,0,0,0,0,0.19006737686446,0,3.5,3.5,0,0,0,0,0,0,0,0,0,0,0,0,0,0,0,0,0,0,0,0,0,0,0,0,0,0,0,0,0,0,0,0,0,0,0,0,0,0,0
1.71774116609887E+018,118.972427368164,-251.19743347168,13.5999994277954,2.01835632324219,0.30517578125,0,20.1835632324219,3.0517578125,0,0.185278930000714,1.79561171396189,0,0,143.955520629883,-249.411514282227,13.8824424743652,-3.74405635739095E-06,-1.01852783700451E-05,-6.52306698611937E-06,1.03297679743264E-05,-1.92476363736205E-05,-3.36526900355239E-05,0.696199111373689,1.26612896810724E-05,3.07,6.037,215.466064453125,-236.484024047852,13.9642963409424,4.66877600047155E-06,-2.87455677607795E-05,9.28437293623574E-06,5.09899109601975E-06,-9.46029103943147E-06,4.66610363218933E-05,0.190297740298752,3.05663984802144E-05,3.07,6.037,218.136688232422,-228.331008911133,13.9989643096924,-8.52717039379058E-06,2.44881957769394E-05,-2.78476927633164E-05,-3.57692915713414E-05,-2.29217221203726E-05,-0.000629503920209,0.190168244090747,3.80509968276065E-05,3.07,6.037,186.251983642578,-232.778991699219,14.9308776855469,0,0,0,0,0,0,0.19006737686446,0,3.5,3.5,0,0,0,0,0,0,0,0,0,0,0,0,0,0,0,0,0,0,0,0,0,0,0,0,0,0,0,0,0,0,0,0,0,0,0,0,0,0,0
1.71774116619891E+018,119.119262695313,-251.174179077148,13.5999994277954,1.46835327148438,0.2325439453125,0,14.6835327148438,2.325439453125,0,0.18487314747437,1.98940017525105,0,0,143.955520629883,-249.411514282227,13.8824424743652,-3.76567231796798E-06,-8.62233355292119E-06,-4.71517068945104E-06,-4.86243152408861E-06,7.51064799260348E-05,0.000120705866721,0.696199111373689,1.05241512025816E-05,3.07,6.037,215.466064453125,-236.484024047852,13.9642963409424,4.29560441261856E-06,-2.48854976234725E-05,1.27926259665401E-05,-3.87015679734759E-05,0.000227235257626,3.94593807868659E-05,0.190297740298752,2.83088588317749E-05,3.07,6.037,218.136688232422,-228.331008911133,13.9989643096924,-8.02889462647727E-06,2.4608671083115E-05,-2.87503553408897E-05,1.11488589027431E-05,-7.12424516677856E-05,-0.000478409492644,0.190168244090747,3.86863383331563E-05,3.07,6.037,186.251983642578,-232.778991699219,14.9308776855469,0,0,0,0,0,0,0.19006737686446,0,3.5,3.5,0,0,0,0,0,0,0,0,0,0,0,0,0,0,0,0,0,0,0,0,0,0,0,0,0,0,0,0,0,0,0,0,0,0,0,0,0,0,0
1.7177411662988E+018,119.358726501465,-251.136123657227,13.5999994277954,2.39463806152344,0.38055419921875,0,23.9463806152344,3.8055419921875,0,0.184548408268948,2.11656395683905,0,0,143.955520629883,-249.411514282227,13.8824424743652,-3.63891945198702E-06,-1.00796669357806E-05,-8.710420843272E-06,-6.68457005303935E-06,8.9462901087245E-06,-1.01837031252217E-05,0.696199111373689,1.38098823883922E-05,3.07,6.037,215.466064453125,-236.484024047852,13.9642963409424,5.69885605727905E-06,-3.07053705910221E-05,1.68901842698688E-05,-9.63032107392792E-06,-0.000144016026752,0.00036053833901,0.190297740298752,3.550457812964E-05,3.07,6.037,218.136688232422,-228.331008911133,13.9989643096924,-8.58886141941184E-06,2.66013284999644E-05,-2.21370628423756E-05,-1.64332050189842E-05,7.19092931831256E-05,-0.000462902738946,0.190168244090747,3.56573802982239E-05,3.07,6.037,186.251983642578,-232.778991699219,14.9308776855469,0,0,0,0,0,0,0.19006737686446,0,3.5,3.5,0,0,0,0,0,0,0,0,0,0,0,0,0,0,0,0,0,0,0,0,0,0,0,0,0,0,0,0,0,0,0,0,0,0,0,0,0,0,0
1.71774116639889E+018,119.531044006348,-251.10856628418,13.5999994277954,1.72317504882813,0.27557373046875,0,17.2317504882813,2.7557373046875,0,0.18424454158857,2.30555684132734,0,0,143.955520629883,-249.411514282227,13.8824424743652,-5.8775581237569E-06,-7.31870522940881E-06,-7.10597078068531E-07,-0.000111669774924,0.000130216561956,0.000446750753326,0.696199111373689,9.41350540130912E-06,3.07,6.037,215.466064453125,-236.484024047852,13.9642963409424,6.08796244705445E-06,-2.80780714092543E-05,1.41723567139707E-05,-1.25260157801677E-07,1.00191755336709E-05,5.27392767253332E-05,0.190297740298752,3.20358717010785E-05,3.07,6.037,218.136688232422,-228.331008911133,13.9989643096924,-8.46909370011417E-06,2.55017348536057E-05,-1.57171125465538E-05,-1.75200511876028E-05,-0.000130156055093,0.000298049330013,0.190168244090747,3.11302369963025E-05,3.07,6.037,186.251983642578,-232.778991699219,14.9308776855469,0,0,0,0,0,0,0.19006737686446,0,3.5,3.5,0,0,0,0,0,0,0,0,0,0,0,0,0,0,0,0,0,0,0,0,0,0,0,0,0,0,0,0,0,0,0,0,0,0,0,0,0,0,0
1.71774116649896E+018,119.808067321777,-251.06428527832,13.5999994277954,2.77023315429687,0.44281005859375,0,27.7023315429687,4.4281005859375,0,0.183727505507688,2.42939006647061,0,0,143.955520629883,-249.411514282227,13.8824424743652,-4.14557734984555E-06,-8.69112045620568E-06,-1.86850847967435E-05,5.93624918110436E-06,-6.83301987010054E-05,0.000301640480757,0.696199111373689,2.10203182708855E-05,3.07,6.037,215.466064453125,-236.484024047852,13.9642963409424,5.35826166014886E-06,-2.77516246569576E-05,1.00471779660438E-05,2.09547579288483E-06,-5.52090568817221E-06,3.34092401317321E-05,0.190297740298752,2.99968235685153E-05,3.07,6.037,218.136688232422,-228.331008911133,13.9989643096924,-6.86192879584269E-06,1.96796645468567E-05,-1.82359108293895E-05,7.32224434614181E-05,-0.000266101240413,-3.89356500818394E-05,0.190168244090747,2.76933874282917E-05,3.07,6.037,186.251983642578,-232.778991699219,14.9308776855469,0,0,0,0,0,0,0.19006737686446,0,3.5,3.5,0,0,0,0,0,0,0,0,0,0,0,0,0,0,0,0,0,0,0,0,0,0,0,0,0,0,0,0,0,0,0,0,0,0,0,0,0,0,0
1.7177411665992E+018,120.003311157227,-251.033004760742,13.5999994277954,1.95243835449219,0.31280517578125,0,19.5243835449219,3.1280517578125,0,0.183765039434302,2.61446874679287,0,0,143.955520629883,-249.411514282227,13.8824424743652,-3.72057775166468E-06,-8.40809207147686E-06,-1.7906630091602E-05,1.12061343315872E-05,4.16179755120538E-05,-0.000779241439886,0.696199111373689,2.01292352643134E-05,3.07,6.037,215.466064453125,-236.484024047852,13.9642963409424,4.15278600485181E-06,-2.73374098469503E-05,1.76181474671466E-05,-6.16754259681329E-05,9.11484676180407E-05,0.000395309500163,0.190297740298752,3.27868682389208E-05,3.07,6.037,218.136688232422,-228.331008911133,13.9989643096924,-8.70121584739536E-06,2.57352367043495E-05,-1.80404276761692E-05,-0.000109769374831,0.000154076129547,0.000115182410809,0.190168244090747,3.26108968933845E-05,3.07,6.037,186.251983642578,-232.778991699219,14.9308776855469,0,0,0,0,0,0,0.19006737686446,0,3.5,3.5,0,0,0,0,0,0,0,0,0,0,0,0,0,0,0,0,0,0,0,0,0,0,0,0,0,0,0,0,0,0,0,0,0,0,0,0,0,0,0
1.71774116669892E+018,120.316825866699,-250.983001708984,13.5999994277954,3.13514709472656,0.500030517578125,0,31.3514709472656,5.00030517578125,0,0.183274235490157,2.73445827492793,0,0,143.955520629883,-249.411514282227,13.8824424743652,-3.71684313904552E-06,-8.69473387865583E-06,-1.00319221019163E-06,0.000108167056169,-6.23890628048684E-06,-0.000198184949113,0.696199111373689,9.50892815997178E-06,3.07,6.037,215.466064453125,-236.484024047852,13.9642963409424,5.55195811102749E-06,-2.95391673716949E-05,2.09772078960668E-05,-1.119731223298E-05,-0.000122495024698,0.000352932693204,0.190297740298752,3.66528293450099E-05,3.07,6.037,218.136688232422,-228.331008911133,13.9989643096924,-8.21586672827834E-06,2.59248899965314E-05,-1.92879651876865E-05,-4.93600964546204E-06,9.2871232482139E-06,-4.76837158203125E-05,0.190168244090747,3.33410555998231E-05,3.07,6.037,186.251983642578,-232.778991699219,14.9308776855469,0,0,0,0,0,0,0.19006737686446,0,3.5,3.5,0,0,0,0,0,0,0,0,0,0,0,0,0,0,0,0,0,0,0,0,0,0,0,0,0,0,0,0,0,0,0,0,0,0,0,0,0,0,0
1.71774116679883E+018,120.537673950195,-250.948516845703,13.5999994277954,2.20848083496094,0.3448486328125,0,22.0848083496094,3.448486328125,0,0.18317822853286,2.91281323838683,0,0,143.955520629883,-249.411514282227,13.8824424743652,-3.69783492715214E-06,-8.61702483234694E-06,-2.6717793844E-06,0.000107853658847,-6.51506779831834E-05,0.000552329933271,0.696199111373689,9.75015411102076E-06,3.07,6.037,215.466064453125,-236.484024047852,13.964298248291,5.22083610121626E-06,-2.69075098913163E-05,9.13400072022341E-06,-4.55011540907435E-05,5.36740117240697E-05,-0.000116775801871,0.190300386815086,2.88911956710706E-05,3.07,6.037,218.136688232422,-228.331008911133,13.9989643096924,-8.56574570207158E-06,2.65943999693263E-05,-2.23279475903837E-05,-1.83991687663365E-05,8.26195027912036E-05,-0.000462298572529,0.190168244090747,3.57655050678721E-05,3.07,6.037,186.251983642578,-232.778991699219,14.9308776855469,0,0,0,0,0,0,0.19006737686446,0,3.5,3.5,0,0,0,0,0,0,0,0,0,0,0,0,0,0,0,0,0,0,0,0,0,0,0,0,0,0,0,0,0,0,0,0,0,0,0,0,0,0,0
1.71774116689891E+018,120.886909484863,-250.893646240234,13.5999994277954,3.49235534667969,0.5487060546875,0,34.9235534667969,5.487060546875,0,0.182988445015678,3.03731861046402,0,0,143.955520629883,-249.411514282227,13.8824424743652,-3.65925939149747E-06,-8.63011882756837E-06,-3.87340060115093E-06,0.000109377324407,-6.36325930827297E-05,-0.000326457404299,0.696199111373689,1.01426013669674E-05,3.07,6.037,215.466064453125,-236.484024047852,13.9642963409424,4.87858414999209E-06,-2.99077855743235E-05,1.86234956345288E-05,5.48185780644417E-05,-0.000103387996205,-0.000258324231254,0.190300386815086,3.55683962376374E-05,3.07,6.037,218.136688232422,-228.331008911133,13.9989643096924,-7.95058895164402E-06,2.33269474847475E-05,-1.64852463058196E-05,7.29037310520653E-06,-0.000238770648139,0.000269179232419,0.190168244090747,2.9649986330481E-05,3.07,6.037,186.251983642578,-232.778991699219,14.9308776855469,0,0,0,0,0,0,0.19006737686446,0,3.5,3.5,0,0,0,0,0,0,0,0,0,0,0,0,0,0,0,0,0,0,0,0,0,0,0,0,0,0,0,0,0,0,0,0,0,0,0,0,0,0,0
1.7177411669992E+018,121.131912231445,-250.854919433594,13.5999994277954,2.45002746582031,0.38726806640625,0,24.5002746582031,3.8726806640625,0,0.182685626954979,3.22345281476732,0,0,143.955520629883,-249.411514282227,13.8824424743652,-4.28614202974131E-06,-7.18737010174664E-06,-2.46413364948239E-05,-3.99928576371167E-05,0.000152114764205,-0.000857465609442,0.696199111373689,2.60235425476574E-05,3.07,6.037,215.466064453125,-236.484024047852,13.9642963409424,4.50164088761085E-06,-2.85675378108863E-05,3.12188858515583E-05,-5.01972863276023E-07,-5.64432411920279E-07,4.8165657062782E-05,0.190300386815086,4.25557025681642E-05,3.07,6.037,218.136688232422,-228.331008911133,13.9989643096924,-8.81276992004132E-06,2.37843760260148E-05,-2.20068050111877E-05,-2.17137767322129E-05,-8.46442126203328E-05,-0.00017106658197,0.190168244090747,3.35806629388237E-05,3.07,6.037,186.251983642578,-232.778991699219,14.9308776855469,0,0,0,0,0,0,0.19006737686446,0,3.5,3.5,0,0,0,0,0,0,0,0,0,0,0,0,0,0,0,0,0,0,0,0,0,0,0,0,0,0,0,0,0,0,0,0,0,0,0,0,0,0,0
1.71774116709906E+018,121.517906188965,-250.795166015625,13.5999994277954,3.85993957519531,0.5975341796875,0,38.5993957519531,5.975341796875,0,0.182430129937899,3.3476043182246,0,0,143.955520629883,-249.411514282227,13.8824424743652,-3.98733664042084E-06,-9.72328689385904E-06,-4.9917016440304E-06,5.77280152356252E-05,-0.000196134671569,0.00016563734971,0.696199111373689,1.1634356312549E-05,3.07,6.037,215.466064453125,-236.484024047852,13.9642963409424,4.89203239339986E-06,-2.56161765719298E-05,-2.37600747965416E-08,0.000244601629674,-0.001280808821321,-1.1880036936418E-06,0.190300386815086,2.60791305001435E-05,3.07,6.037,218.136688232422,-228.331008911133,13.9989643096924,-6.55129542792565E-06,2.26948413910577E-05,-1.9606563000707E-05,3.04644800053211E-05,-0.000154402092448,0.000374530383851,0.190168244090747,3.06984138067412E-05,3.07,6.037,186.251983642578,-232.778991699219,14.9308776855469,0,0,0,0,0,0,0.19006737686446,0,3.5,3.5,0,0,0,0,0,0,0,0,0,0,0,0,0,0,0,0,0,0,0,0,0,0,0,0,0,0,0,0,0,0,0,0,0,0,0,0,0,0,0
1.71774116719888E+018,121.787757873535,-250.753509521484,13.5999994277954,2.69851684570312,0.41656494140625,0,26.9851684570312,4.1656494140625,0,0.182632962944423,3.53869728762332,0,0,143.955520629883,-249.411514282227,13.8824424743652,-3.79764469471411E-06,-9.92806599242613E-06,-7.77651439420879E-06,5.59552499908023E-05,-0.00019170435553,0.000154193636263,0.696199111373689,1.31705267814387E-05,3.07,6.037,215.466064453125,-236.484024047852,13.9642963409424,5.49156220586156E-06,-2.66353399638319E-05,2.46973672801687E-06,2.18939931073692E-05,0.000122351601021,-0.000292153155897,0.190300386815086,2.73074749831519E-05,3.07,6.037,218.136688232422,-228.331008911133,13.9989643096924,-8.129458365147E-06,2.56335351878079E-05,-1.76285811903654E-05,-5.10458448843565E-06,1.02463673101738E-05,-4.7655248636147E-05,0.190168244090747,3.21548300309696E-05,3.07,6.037,186.251983642578,-232.778991699219,14.9308776855469,0,0,0,0,0,0,0.19006737686446,0,3.5,3.5,0,0,0,0,0,0,0,0,0,0,0,0,0,0,0,0,0,0,0,0,0,0,0,0,0,0,0,0,0,0,0,0,0,0,0,0,0,0,0
1.71774116729928E+018,122.21102142334,-250.687454223633,13.5999994277954,4.23263549804688,0.660552978515625,0,42.3263549804688,6.60552978515625,0,0.183475154349647,3.66036507405751,0,0,143.955520629883,-249.411514282227,13.8824424743652,-5.93818731431384E-06,-7.36657511879457E-06,3.4815943195099E-07,-0.000106863684778,6.29769638180733E-05,0.000316001969622,0.696199111373689,9.46835321218941E-06,3.07,6.037,215.466064453125,-236.484024047852,13.9642963409424,5.81942504140898E-06,-3.00361207337119E-05,1.02701515061199E-05,7.47154444979969E-06,-6.10198185313493E-06,1.66971858561737E-05,0.190300386815086,3.22724382174844E-05,3.07,6.037,218.136688232422,-228.331008911133,13.9989643096924,-8.16695410321699E-06,2.4983844923554E-05,-2.97878486890113E-05,-5.93904587731231E-06,1.82576513907406E-05,-3.63859726348892E-05,0.190168244090747,3.97266607709191E-05,3.07,6.037,186.251983642578,-232.778991699219,14.9308776855469,0,0,0,0,0,0,0.19006737686446,0,3.5,3.5,0,0,0,0,0,0,0,0,0,0,0,0,0,0,0,0,0,0,0,0,0,0,0,0,0,0,0,0,0,0,0,0,0,0,0,0,0,0,0
1.7177411673992E+018,122.505592346191,-250.641906738281,13.5999994277954,2.94570922851562,0.455474853515625,0,29.4570922851562,4.55474853515625,0,0.185274901969565,3.8543541948541,0,0,143.955520629883,-249.411514282227,13.8824424743652,-3.7200748010946E-06,-8.62585329741705E-06,-7.59268095862353E-06,4.01744509872515E-05,-4.05404534831177E-05,0.000419149873778,0.696199111373689,1.20786218491078E-05,3.07,6.037,215.466064453125,-236.484024047852,13.9642963409424,5.30004490428837E-06,-2.6624202291714E-05,4.13470570492791E-06,-3.1240277166944E-05,0.000165617078892,-0.000403034209739,0.190300386815086,2.74596870871455E-05,3.07,6.037,218.136688232422,-228.331008911133,13.9989643096924,-8.37771221995354E-06,2.53960479312809E-05,-1.4518499483529E-05,2.63163656200049E-05,6.74519469612278E-05,0.000125855644001,0.190168244090747,3.04291330770613E-05,3.07,6.037,186.251983642578,-232.778991699219,14.9308776855469,0,0,0,0,0,0,0.19006737686446,0,3.5,3.5,0,0,0,0,0,0,0,0,0,0,0,0,0,0,0,0,0,0,0,0,0,0,0,0,0,0,0,0,0,0,0,0,0,0,0,0,0,0,0
1.71774116749892E+018,122.965576171875,-250.569854736328,13.5999994277954,4.59983825683594,0.72052001953125,0,45.9983825683594,7.2052001953125,0,0.188738209809159,3.97637684332928,0,0,143.955520629883,-249.411514282227,13.8824424743652,-3.60510307473305E-06,-9.93024514173158E-06,-1.10760956886224E-05,4.86611388623714E-05,-0.000175804831088,0.000159959250595,0.696199111373689,1.53064180152593E-05,3.07,6.037,215.466064453125,-236.484024047852,13.9642963409424,5.12441602040781E-06,-2.99627336062258E-05,1.26833710965002E-05,2.49133336183149E-07,-3.16649675369263E-06,2.95041900244541E-05,0.190300386815086,3.29377131428307E-05,3.07,6.037,218.136688232422,-228.331008911133,13.9989643096924,-8.04726005299017E-06,2.81242282653693E-05,-2.26502834266284E-05,-6.94394657330122E-06,0.000242717578658,-0.000339241261827,0.190168244090747,3.6996837016016E-05,3.07,6.037,186.251983642578,-232.778991699219,14.9308776855469,0,0,0,0,0,0,0.19006737686446,0,3.5,3.5,0,0,0,0,0,0,0,0,0,0,0,0,0,0,0,0,0,0,0,0,0,0,0,0,0,0,0,0,0,0,0,0,0,0,0,0,0,0,0
1.71774116759877E+018,123.284606933594,-250.518203735352,13.5999994277954,3.1903076171875,0.516510009765625,0,31.903076171875,5.16510009765625,0,0.191546962587081,4.16266767663695,0,0,143.955520629883,-249.411514282227,13.8824424743652,-4.72801730211359E-06,-9.28359077079222E-06,-2.46674812842684E-06,-7.86030796007253E-07,-6.84009573888034E-05,-0.000113230431452,0.696199111373689,1.07062622580302E-05,3.07,6.037,215.466064453125,-236.484024047852,13.9642963409424,0,0,0,-0.000259269494563,0.001512255519629,-0.000723410514183,0.190300386815086,0,3.07,6.037,218.136688232422,-228.331008911133,13.9989643096924,-6.60195928503526E-06,2.2739133783034E-05,-1.81759878614685E-05,3.06740512314718E-05,-0.000151431231643,0.0003770282201,0.190168244090747,2.9849968280456E-05,3.07,6.037,186.251983642578,-232.778991699219,14.9308776855469,0,0,0,0,0,0,0.19006737686446,0,3.5,3.5,0,0,0,0,0,0,0,0,0,0,0,0,0,0,0,0,0,0,0,0,0,0,0,0,0,0,0,0,0,0,0,0,0,0,0,0,0,0,0
1.71774116769911E+018,123.781372070313,-250.436279296875,13.5999994277954,4.9676513671875,0.819244384765625,0,49.676513671875,8.19244384765625,0,0.196026016711188,4.28947618913358,0,0,143.955520629883,-249.411514282227,13.8824424743652,-3.8614307413809E-06,-7.95625146565726E-06,-1.60975032486022E-05,-2.80783751804847E-07,-6.68505890644155E-06,-2.99955900118221E-05,0.696199111373689,1.83668776767858E-05,3.07,6.037,215.466064453125,-236.484024047852,13.964298248291,5.77620221520192E-06,-2.74752073892159E-05,5.98986389377387E-06,2.83247791230679E-05,4.46661942987703E-05,0.000166676967638,0.190300386815086,2.87076645266951E-05,3.07,6.037,218.136688232422,-228.331008911133,13.9989643096924,-7.48036427467014E-06,2.68321855401155E-05,-3.22992527799215E-05,7.75680091464892E-05,2.54456608672626E-05,-0.000722244032659,0.190168244090747,4.26516560133626E-05,3.07,6.037,186.251983642578,-232.778991699219,14.9308776855469,0,0,0,0,0,0,0.19006737686446,0,3.5,3.5,0,0,0,0,0,0,0,0,0,0,0,0,0,0,0,0,0,0,0,0,0,0,0,0,0,0,0,0,0,0,0,0,0,0,0,0,0,0,0
1.71774116779887E+018,124.124702453613,-250.37939453125,13.5999994277954,3.43330383300781,0.56884765625,0,34.3330383300781,5.6884765625,0,0.199498362653731,4.4722526706809,0,0,143.955520629883,-249.411514282227,13.8824424743652,-5.45269813301275E-06,-7.50232493373915E-06,-6.34106243069255E-07,-1.01365230875672E-05,7.69877515267581E-05,0.000137886716402,0.696199111373689,9.2961759379147E-06,3.07,6.037,215.466064453125,-236.484024047852,13.9642963409424,5.771601536253E-06,-2.85110982076731E-05,8.7783910203143E-06,7.70227197790518E-05,1.53668224811554E-06,0.000298971543089,0.190300386815086,3.03850992133709E-05,3.07,6.037,218.136688232422,-228.331008911133,13.9989643096924,-8.09743960417109E-06,2.49065833486384E-05,-1.18656907943659E-05,1.40546035254374E-05,-6.9009096478112E-05,0.000407280225772,0.190168244090747,2.87524092951072E-05,3.07,6.037,186.251983642578,-232.778991699219,14.9308776855469,0,0,0,0,0,0,0.19006737686446,0,3.5,3.5,0,0,0,0,0,0,0,0,0,0,0,0,0,0,0,0,0,0,0,0,0,0,0,0,0,0,0,0,0,0,0,0,0,0,0,0,0,0,0
1.71774116789914E+018,124.657485961914,-250.288589477539,13.5999994277954,5.32783508300781,0.908050537109375,0,53.2783508300781,9.08050537109375,0,0.205320482205078,4.59643722370223,0,0,143.955520629883,-249.411514282227,13.8824424743652,-5.62972354600788E-06,-7.37374648451805E-06,-1.90012030998332E-06,-2.09454356081551E-06,9.92781679087784E-07,4.66684468847234E-09,0.696199111373689,9.46976143389204E-06,3.07,6.037,215.466064453125,-236.484024047852,13.9642963409424,5.74394107388798E-06,-2.9468945285771E-05,1.16812689157086E-05,4.85661294078454E-05,-6.0001366364304E-05,0.000167251666426,0.190300386815086,3.22158910911551E-05,3.07,6.037,218.136688232422,-228.331008911133,13.9989643096924,-8.61015178088564E-06,2.66329570877133E-05,-2.24291252379771E-05,-1.11274403025163E-05,6.03366970608477E-05,-0.000485615659272,0.190168244090747,3.58680188450203E-05,3.07,6.037,186.251983642578,-232.778991699219,14.9308776855469,0,0,0,0,0,0,0.19006737686446,0,3.5,3.5,0,0,0,0,0,0,0,0,0,0,0,0,0,0,0,0,0,0,0,0,0,0,0,0,0,0,0,0,0,0,0,0,0,0,0,0,0,0,0
1.71774116799906E+018,125.024322509766,-250.223526000977,13.5999994277954,3.66836547851562,0.650634765625,0,36.6836547851562,6.50634765625,0,0.209740031323578,4.77916232683487,0,0,143.955520629883,-249.411514282227,13.8824424743652,-3.31471665049321E-06,-9.05085289559793E-06,-9.38690664042952E-06,5.95395022173761E-06,-1.38170889840694E-05,7.58959686208982E-06,0.696199111373689,1.34543413397665E-05,3.07,6.037,215.466064453125,-236.484024047852,13.9642963409424,4.35211677540792E-06,-2.76357677648775E-05,2.20203855860746E-05,-6.61141239106655E-05,0.000122271463624,0.000375200615963,0.190300386815086,3.56030049538017E-05,3.07,6.037,218.136688232422,-228.331008911133,13.9989643096924,-8.45394970383495E-06,2.5581604859326E-05,-1.52055336002377E-05,9.60199031396769E-07,-5.54700818611309E-06,-4.46075318905059E-06,0.190168244090747,3.09369685787348E-05,3.07,6.037,186.251983642578,-232.778991699219,14.9308776855469,0,0,0,0,0,0,0.19006737686446,0,3.5,3.5,0,0,0,0,0,0,0,0,0,0,0,0,0,0,0,0,0,0,0,0,0,0,0,0,0,0,0,0,0,0,0,0,0,0,0,0,0,0,0
1.71774116809917E+018,125.592109680176,-250.11833190918,13.5999994277954,5.67787170410156,1.05194091796875,0,56.7787170410156,10.5194091796875,0,0.216177707271384,4.90631804016748,0,0,143.955520629883,-249.411514282227,13.8824424743652,-4.05446598961134E-06,-8.81073992786696E-06,-1.52048039581132E-06,6.03172338742297E-06,-1.34296897158492E-05,-2.95626650768099E-05,0.696199111373689,9.81731598612731E-06,3.07,6.037,215.466064453125,-236.484024047852,13.9642963409424,5.67394317840808E-06,-3.04028017126257E-05,2.12755403481424E-05,6.63103492115624E-06,-8.26639734441415E-06,4.09501808462665E-05,0.190300386815086,3.75389477779342E-05,3.07,6.037,218.136688232422,-228.331008911133,13.9989643096924,-7.56692134018522E-06,2.35965835599927E-05,-1.993396654143E-05,-3.52077222487424E-05,0.000184023694601,-7.57855596020818E-05,0.190168244090747,3.18028312630671E-05,3.07,6.037,186.251983642578,-232.778991699219,14.9308776855469,0,0,0,0,0,0,0.19006737686446,0,3.5,3.5,0,0,0,0,0,0,0,0,0,0,0,0,0,0,0,0,0,0,0,0,0,0,0,0,0,0,0,0,0,0,0,0,0,0,0,0,0,0,0
1.71774116819924E+018,125.982246398926,-250.041854858398,13.5999994277954,3.9013671875,0.7647705078125,0,39.013671875,7.647705078125,0,0.218568277179136,5.09303300684189,0,0,143.955520629883,-249.411514282227,13.8824424743652,-3.71397459275613E-06,-9.62024569162168E-06,-2.91482956527034E-06,6.15986064076424E-05,-0.000202557086595,0.000162665222888,0.696199111373689,1.07162944079275E-05,3.07,6.037,215.466064453125,-236.484024047852,13.9642963409424,5.22338768860209E-06,-2.68510721070925E-05,2.69449515144515E-06,4.08292635256657E-06,2.17914930544794E-07,6.7567394580692E-05,0.190300386815086,2.74867996748781E-05,3.07,6.037,218.136688232422,-228.331008911133,13.9989643096924,-7.85628344601719E-06,2.64965729002142E-05,-1.82832227437757E-05,-4.87175384478178E-06,2.33035279961769E-05,-7.84938456490636E-05,0.190168244090747,3.31370758960269E-05,3.07,6.037,186.251983642578,-232.778991699219,14.9308776855469,0,0,0,0,0,0,0.19006737686446,0,3.5,3.5,0,0,0,0,0,0,0,0,0,0,0,0,0,0,0,0,0,0,0,0,0,0,0,0,0,0,0,0,0,0,0,0,0,0,0,0,0,0,0
1.71774116829899E+018,126.586090087891,-249.925079345703,13.5999994277954,6.03843688964844,1.16775512695313,0,60.3843688964844,11.6775512695313,0,0.222736706851599,5.21849118041708,0,0,143.955520629883,-249.411514282227,13.8824424743652,-5.86569285587757E-06,-7.35819321562303E-06,-1.23451764011406E-05,-0.000113854170195,0.000138616174809,-0.000448755337857,0.696199111373689,1.55226524941201E-05,3.07,6.037,215.466064453125,-236.484024047852,13.9642963409424,5.72930093767354E-06,-2.88874271063833E-05,6.18348894931842E-06,7.797962098266E-06,-3.44868567481171E-05,5.44989925401751E-05,0.190300386815086,3.00922559747084E-05,3.07,6.037,218.136688232422,-228.331008911133,13.9989643096924,-8.3783079389832E-06,2.50273187702987E-05,-1.8597213056637E-05,4.60688170278445E-05,-3.09273673337884E-05,4.56178895547055E-05,0.190168244090747,3.22865151762237E-05,3.07,6.037,186.251983642578,-232.778991699219,14.9308776855469,0,0,0,0,0,0,0.19006737686446,0,3.5,3.5,0,0,0,0,0,0,0,0,0,0,0,0,0,0,0,0,0,0,0,0,0,0,0,0,0,0,0,0,0,0,0,0,0,0,0,0,0,0,0
1.71774116839894E+018,127.001121520996,-249.845397949219,13.5999994277954,4.15031433105469,0.79681396484375,0,41.5031433105469,7.9681396484375,0,0.22668276257304,5.40703781355722,0,0,143.955520629883,-249.411514282227,13.8824424743652,-3.50765867551672E-06,-1.01668947536382E-05,-4.39236191596137E-06,5.48269554201397E-06,-7.29812672943808E-05,-0.000135988855618,0.696199111373689,1.16173259193444E-05,3.07,6.037,215.466064453125,-236.484024047852,13.9642963409424,4.87203715238138E-06,-2.80554213532014E-05,-4.31776607001666E-06,3.81983227271121E-06,-1.0291114449501E-05,-6.6666643760982E-06,0.190300386815086,2.88008075781781E-05,3.07,6.037,218.136688232422,-228.331008911133,13.9989643096924,-8.58895418787142E-06,2.58889795077266E-05,-2.38464563153684E-05,-6.36368895357009E-06,1.99750502360985E-05,-5.31577825313434E-05,0.190168244090747,3.62306896538503E-05,3.07,6.037,186.251983642578,-232.778991699219,14.9308776855469,0,0,0,0,0,0,0.19006737686446,0,3.5,3.5,0,0,0,0,0,0,0,0,0,0,0,0,0,0,0,0,0,0,0,0,0,0,0,0,0,0,0,0,0,0,0,0,0,0,0,0,0,0,0
1.71774116849892E+018,127.644477844238,-249.718978881836,13.5999994277954,6.43356323242188,1.26419067382813,0,64.3356323242188,12.6419067382813,0,0.233806635265218,5.52277793777819,0,0,143.955520629883,-249.411514282227,13.8824424743652,-5.86581381867291E-06,-7.1646272772341E-06,-1.4233245565265E-05,-0.000117032774142,0.000146452337503,-0.000448653649073,0.696199111373689,1.69801335418234E-05,3.07,6.037,215.466064453125,-236.484024047852,13.9642963409424,6.19121829004143E-06,-3.12406555167399E-05,9.80875211098464E-06,2.48201104113832E-07,-2.00980139197782E-06,5.32653284608386E-05,0.190300386815086,3.33244858775841E-05,3.07,6.037,218.136688232422,-228.331008911133,13.9989643096924,-8.395444638154E-06,2.49617532972479E-05,-1.67423186212545E-05,-1.50027062773006E-05,-0.000130904838443,0.000305054069031,0.190168244090747,3.12070160566592E-05,3.07,6.037,186.251983642578,-232.778991699219,14.9308776855469,0,0,0,0,0,0,0.19006737686446,0,3.5,3.5,0,0,0,0,0,0,0,0,0,0,0,0,0,0,0,0,0,0,0,0,0,0,0,0,0,0,0,0,0,0,0,0,0,0,0,0,0,0,0
1.71774116859915E+018,128.08171081543,-249.628234863281,13.5999994277954,4.37232971191406,0.907440185546875,0,43.7232971191406,9.07440185546875,0,0.23876640661084,5.69104115765408,0,0,143.955520629883,-249.411514282227,13.8824424743652,-4.16157763538649E-06,-8.44992700876901E-06,-1.88865014933981E-05,5.20376488566399E-06,-5.74588957533706E-05,0.000289183022687,0.696199111373689,2.110497414187E-05,3.07,6.037,215.466064453125,-236.484024047852,13.9642963409424,5.71145665162476E-06,-2.88750215986511E-05,4.57572923551197E-06,1.69174654729431E-05,0.000111943067168,-0.000262905145064,0.190300386815086,2.97879993863749E-05,3.07,6.037,218.136688232422,-228.331008911133,13.9989643096924,-6.84458746036398E-06,1.99002024601214E-05,-1.83704505616333E-05,0.000105161212559,-0.000188263133168,0.000136518428917,0.190168244090747,2.79345644192604E-05,3.07,6.037,186.251983642578,-232.778991699219,14.9308776855469,0,0,0,0,0,0,0.19006737686446,0,3.5,3.5,0,0,0,0,0,0,0,0,0,0,0,0,0,0,0,0,0,0,0,0,0,0,0,0,0,0,0,0,0,0,0,0,0,0,0,0,0,0,0
1.71774116869897E+018,128.751922607422,-249.483856201172,13.5999994277954,6.70211791992188,1.44378662109375,0,67.0211791992188,14.4378662109375,0,0.246960287494742,5.78446840020347,0,0,143.955520629883,-249.411514282227,13.8824424743652,-4.97381188324653E-06,-5.4785796237411E-06,-6.62585262034554E-06,-4.93507759529166E-05,0.000181511044502,-0.000211882885196,0.696199111373689,9.93255064372366E-06,3.07,6.037,215.466064453125,-236.484024047852,13.9642963409424,5.82685697736451E-06,-2.67051891569281E-05,-6.64445394704671E-07,6.72219321131706E-05,6.39670324744657E-05,-0.000135825655889,0.190300386815086,2.73415595353395E-05,3.07,6.037,218.136688232422,-228.331008911133,13.9989643096924,-7.70568840380292E-06,2.59879598161206E-05,-1.72283107531257E-05,1.13341229734942E-06,1.67991856869776E-05,-7.25227437214926E-05,0.190168244090747,3.21180071079615E-05,3.07,6.037,186.251983642578,-232.778991699219,14.9308776855469,0,0,0,0,0,0,0.19006737686446,0,3.5,3.5,0,0,0,0,0,0,0,0,0,0,0,0,0,0,0,0,0,0,0,0,0,0,0,0,0,0,0,0,0,0,0,0,0,0,0,0,0,0,0
